City_ID,City,Lat,Lng,Max Temp,Humidity,Cloudiness,Wind Speed,Country,Date
0,port mathurin,-19.6833,63.4167,24.78,72,3,7.3,MU,1686866588
1,brisas de zicatela,15.8369,-97.0419,32.29,58,40,4.12,MX,1686866588
2,bilibino,68.0546,166.4372,4.62,51,62,0.29,RU,1686866588
3,malpica,43.3228,-8.8105,20.09,74,80,1.77,ES,1686866588
4,west island,-12.1568,96.8225,26.99,89,75,8.03,CC,1686866588
5,lihue,21.9789,-159.3672,26.36,78,75,9.77,US,1686866540
6,vila do maio,15.1333,-23.2167,25.44,79,41,4.12,CV,1686866589
7,port-aux-francais,-49.35,70.2167,6.78,97,100,11.63,TF,1686866589
8,concepcion de la sierra,-27.9831,-55.5203,13.69,99,100,2.39,AR,1686866589
9,qaqortoq,60.7167,-46.0333,3.69,70,14,2.24,GL,1686866589
10,jilib,0.4883,42.7854,21.74,94,72,2.43,SO,1686866589
11,atafu village,-8.5421,-172.5159,29.13,73,16,8.31,TK,1686866589
12,iqaluit,63.7506,-68.5145,5.39,52,32,5.81,CA,1686866589
13,soe,-9.8607,124.284,15.68,94,51,1.98,ID,1686866589
14,adamstown,-25.066,-130.1015,21.42,70,79,3.12,PN,1686866590
15,yellowknife,62.456,-114.3525,16.98,45,96,5.36,CA,1686866512
16,grytviken,-54.2811,-36.5092,-0.49,86,69,3.75,GS,1686866590
17,pointe michel,15.25,-61.3833,28.08,78,1,7.69,DM,1686866590
18,enewetak,11.3474,162.3373,27.74,80,99,8.47,MH,1686866590
19,nishinoomote,30.7333,131.0,23.74,71,100,4.49,JP,1686866590
20,ribeira grande,38.5167,-28.7,19.32,84,11,1.34,PT,1686866590
21,albany,42.6001,-73.9662,25.53,51,21,0.45,US,1686866554
22,bartica,6.4,-58.6167,28.18,99,97,1.87,GY,1686866591
23,ingeniero guillermo n. juarez,-23.9,-61.85,11.73,36,0,2.38,AR,1686866591
24,karratha,-20.7377,116.8463,19.75,43,92,2.37,AU,1686866591
25,fougamou,-1.2154,10.5838,23.23,89,98,1.36,GA,1686866591
26,kristiansund,63.1115,7.732,13.03,82,32,4.63,NO,1686866591
27,ouani,-12.1322,44.4258,25.45,71,86,1.18,KM,1686866591
28,el calafate,-50.3408,-72.2768,-2.24,74,86,0.42,AR,1686866475
29,saipan,15.1355,145.701,30.39,100,40,6.69,MP,1686866592
30,northam,51.0333,-4.2167,17.44,73,1,0.24,GB,1686866592
31,papatowai,-46.5619,169.4708,6.29,70,100,3.26,NZ,1686866592
32,happy valley-goose bay,53.3168,-60.3315,10.17,93,100,4.63,CA,1686866592
33,gunjur,13.2019,-16.7339,26.04,89,0,0.0,GM,1686866592
34,bredasdorp,-34.5322,20.0403,10.41,91,7,2.46,ZA,1686866592
35,remire-montjoly,4.9167,-52.2667,27.02,83,20,3.6,GF,1686866592
36,rongelap,11.1635,166.8941,27.78,75,72,8.49,MH,1686866592
37,chonchi,-42.6128,-73.8092,6.18,87,6,1.6,CL,1686866593
38,waitangi,-43.9535,-176.5597,11.57,90,93,0.89,NZ,1686866593
39,fort st. john,56.2499,-120.8529,19.83,41,17,2.92,CA,1686866593
40,port macquarie,-31.4333,152.9167,6.05,63,0,1.93,AU,1686866593
41,margaret river,-33.95,115.0667,15.82,61,87,10.83,AU,1686866593
42,avarua,-21.2078,-159.775,23.03,94,99,2.57,CK,1686866593
43,porto seguro,-16.4497,-39.0647,24.29,88,40,1.54,BR,1686866593
44,namibe,-15.1961,12.1522,19.44,71,0,0.4,AO,1686866594
45,port elizabeth,-33.918,25.5701,13.94,94,20,5.66,ZA,1686866400
46,edinburgh of the seven seas,-37.0676,-12.3116,12.3,63,93,17.67,SH,1686866594
47,hechuan,29.9947,106.2572,19.61,94,100,1.41,CN,1686866594
48,tazovsky,67.4667,78.7,2.72,93,99,5.85,RU,1686866594
49,pervomayskoye,43.919,46.7102,20.99,78,62,2.83,RU,1686866594
50,puerto natales,-51.7236,-72.4875,3.03,74,9,3.69,CL,1686866594
51,wailua homesteads,22.0669,-159.378,26.24,82,75,8.23,US,1686866594
52,minab,27.1467,57.0801,31.5,62,38,1.25,IR,1686866594
53,chauk,20.8833,94.8167,27.88,74,91,6.48,MM,1686866594
54,peniche,39.3558,-9.3811,21.71,89,75,6.97,PT,1686866468
55,danjiangkou,32.5428,111.5086,24.5,55,100,3.91,CN,1686866469
56,vorgashor,67.5833,63.95,0.38,97,85,6.39,RU,1686866595
57,birao,10.2849,22.7882,25.19,81,96,1.57,CF,1686866595
58,pilar,-9.5972,-35.9567,23.96,95,20,2.19,BR,1686866542
59,vernon,50.2581,-119.2691,27.74,25,55,0.89,CA,1686866595
60,rodolfo sanchez taboada,31.7167,-116.5667,21.17,67,35,2.24,MX,1686866595
61,hamilton,39.1834,-84.5333,28.69,55,40,3.6,US,1686866584
62,vilyuchinsk,52.9306,158.4028,18.15,64,55,4.17,RU,1686866595
63,lebu,-37.6167,-73.65,10.98,87,48,7.91,CL,1686866595
64,phan rang-thap cham,11.5667,108.9833,26.76,80,100,1.09,VN,1686866596
65,bamboo flat,11.7,92.7167,26.9,85,83,3.86,IN,1686866596
66,mata-utu,-13.2816,-176.1745,28.29,78,84,6.57,WF,1686866596
67,olonkinbyen,70.9221,-8.7187,3.39,92,86,4.4,SJ,1686866596
68,ushuaia,-54.8,-68.3,1.67,97,64,2.1,AR,1686866596
69,ajra,16.1167,74.2,22.71,89,36,3.29,IN,1686866596
70,taoudenni,22.6783,-3.9836,37.72,8,4,5.13,ML,1686866596
71,nova sintra,14.8667,-24.7167,21.09,79,26,5.62,CV,1686866596
72,whitehorse,60.7161,-135.0538,18.39,25,99,4.02,CA,1686866597
73,puerto aysen,-45.4,-72.7,0.14,95,71,0.39,CL,1686866597
74,kodiak,57.79,-152.4072,8.73,93,100,5.14,US,1686866597
75,colonia,50.9333,6.95,19.92,59,0,3.09,DE,1686866518
76,queenstown,-31.8976,26.8753,8.09,69,28,6.59,ZA,1686866597
77,alegrete,-29.7831,-55.7919,12.72,93,100,6.56,BR,1686866597
78,ambon,-3.6954,128.1814,27.08,86,40,1.54,ID,1686866597
79,adi keyh,14.8444,39.3772,17.06,65,8,1.3,ER,1686866597
80,sisimiut,66.9395,-53.6735,0.29,79,100,3.79,GL,1686866598
81,baissa,7.2333,10.6333,22.34,98,100,0.97,NG,1686866598
82,aasiaat,68.7098,-52.8699,0.73,81,100,4.39,GL,1686866598
83,brookings,44.3114,-96.7984,31.0,33,75,2.57,US,1686866598
84,susuman,62.7833,148.1667,16.63,58,66,1.5,RU,1686866598
85,college,64.8569,-147.8028,19.99,32,75,2.06,US,1686866598
86,salatiga,-7.3319,110.4928,22.33,95,72,0.81,ID,1686866598
87,tiksi,71.6872,128.8694,4.95,80,94,2.21,RU,1686866599
88,hermanus,-34.4187,19.2345,8.78,85,9,3.55,ZA,1686866549
89,cockburn town,21.4612,-71.1419,28.34,86,89,7.43,TC,1686866599
90,punta arenas,-53.15,-70.9167,5.06,75,20,5.66,CL,1686866599
91,saint-philippe,-21.3585,55.7679,24.77,84,73,5.52,RE,1686866599
92,badger,64.8,-147.5333,19.95,32,75,2.06,US,1686866599
93,severo-yeniseyskiy,60.3725,93.0408,6.04,94,100,3.05,RU,1686866599
94,manado,1.487,124.8455,24.43,94,40,1.03,ID,1686866599
95,talnakh,69.4865,88.3972,5.67,80,100,2.78,RU,1686866557
96,labuan,5.2767,115.2417,27.72,78,100,2.76,MY,1686866600
97,bethel,41.3712,-73.414,25.86,55,0,4.63,US,1686866600
98,uturoa,-16.7333,-151.4333,27.06,83,70,10.09,PF,1686866600
99,invercargill,-46.4,168.35,4.82,76,100,1.86,NZ,1686866600
100,mont-dore,-22.2833,166.5833,22.22,99,43,2.8,NC,1686866600
101,jinka,5.65,36.65,17.61,80,99,0.69,ET,1686866600
102,dawei,14.0833,98.2,24.97,92,100,0.51,MM,1686866600
103,midvagur,62.0511,-7.1939,10.46,93,61,2.57,FO,1686866600
104,bayanhongor,46.7167,100.1167,10.48,67,94,2.1,MN,1686866601
105,lubao,14.9167,120.55,26.04,87,97,0.6,PH,1686866601
106,port lincoln,-34.7333,135.8667,12.76,49,1,9.15,AU,1686866601
107,holdrege,40.4403,-99.3698,28.95,34,0,4.12,US,1686866601
108,hawaiian paradise park,19.5933,-154.9731,27.73,80,75,4.63,US,1686866601
109,ilulissat,69.2167,-51.1,4.01,70,100,3.09,GL,1686866601
110,sao paulo de olivenca,-3.3783,-68.8725,24.69,73,79,0.67,BR,1686866601
111,yangzhou,32.3972,119.4358,24.92,79,100,3.24,CN,1686866602
112,fortuna,40.5982,-124.1573,21.31,63,20,9.26,US,1686866602
113,salinopolis,-0.6136,-47.3561,26.06,86,6,4.82,BR,1686866602
114,pisco,-13.7,-76.2167,20.03,73,0,7.2,PE,1686866602
115,la ronge,55.1001,-105.2842,20.41,40,54,7.65,CA,1686866602
116,parras de la fuente,25.4167,-102.1833,36.55,10,21,4.54,MX,1686866602
117,naze,28.3667,129.4833,22.57,85,99,2.15,JP,1686866602
118,bilohirsk,45.05,34.6,18.03,76,50,3.53,UA,1686866417
119,ar ruways,24.1103,52.7306,32.23,56,99,5.9,AE,1686866358
120,vila franca do campo,37.7167,-25.4333,19.23,92,60,3.76,PT,1686866603
121,doctor juan leon mallorquin,-25.4,-55.2667,12.85,94,100,1.09,PY,1686866603
122,ataq,14.5377,46.8319,27.74,40,62,2.51,YE,1686866603
123,fale old settlement,-9.3852,-171.2468,29.02,70,94,8.32,TK,1686866603
124,paka,4.6374,103.4368,25.34,88,81,1.17,MY,1686866603
125,codrington,-38.2667,141.9667,9.75,72,1,7.92,AU,1686866603
126,guerrero negro,27.9769,-114.0611,21.66,57,80,8.58,MX,1686866603
127,taroa,8.7058,171.2275,27.99,83,57,9.0,MH,1686866603
128,likisa,-8.6695,125.6875,16.32,83,99,2.51,TL,1686866604
129,stanley,54.868,-1.6985,14.29,83,0,0.51,GB,1686866580
130,port alfred,-33.5906,26.891,12.32,91,58,1.34,ZA,1686866604
131,georgetown,5.4112,100.3354,28.96,74,20,1.03,MY,1686866437
132,waxhaw,34.9246,-80.7434,28.94,64,95,0.45,US,1686866517
133,barranca,-10.75,-77.7667,21.16,76,55,4.3,PE,1686866604
134,grand falls-windsor,48.9332,-55.6649,15.84,64,96,0.89,CA,1686866604
135,lauro de freitas,-12.8944,-38.3272,24.77,82,2,4.47,BR,1686866509
136,bonthe,7.5264,-12.505,26.48,81,93,4.08,SL,1686866604
137,itabirito,-20.2533,-43.8014,19.2,72,100,1.26,BR,1686866605
138,the dalles,45.5946,-121.1787,27.65,40,0,7.72,US,1686866605
139,ribadesella,43.4614,-5.0596,18.3,90,29,2.95,ES,1686866605
140,rio grande,-32.035,-52.0986,15.06,73,100,6.42,BR,1686866605
141,petropavlovsk-kamchatsky,53.0452,158.6483,17.33,48,0,2.0,RU,1686866377
142,sao domingos do maranhao,-5.5758,-44.3853,28.73,51,75,2.16,BR,1686866605
143,port saint john's,-31.6229,29.5448,18.3,54,30,7.78,ZA,1686866605
144,iznik,40.4286,29.7211,18.86,84,66,1.7,TR,1686866605
145,gashua,12.871,11.0482,31.07,44,100,4.04,NG,1686866606
146,isafjordur,66.0755,-23.124,13.05,82,100,1.03,IS,1686866606
147,susanville,40.4163,-120.653,24.89,25,0,2.06,US,1686866606
148,impfondo,1.6381,18.0667,22.12,97,48,0.49,CG,1686866606
149,al bawiti,28.3492,28.8659,27.01,31,0,2.05,EG,1686866606
150,blackmans bay,-43.0167,147.3167,8.07,78,67,3.79,AU,1686866606
151,fortaleza,-3.7227,-38.5247,27.07,78,75,3.6,BR,1686866439
152,anadyr,64.75,177.4833,4.28,69,75,2.0,RU,1686866415
153,miles city,46.4083,-105.8406,21.54,32,75,5.14,US,1686866606
154,ta`u,-14.2336,-169.5144,27.01,82,95,7.94,AS,1686866607
155,manismata,-2.4667,111.0333,23.04,98,100,1.18,ID,1686866607
156,great yarmouth,52.6083,1.7305,15.23,82,11,3.88,GB,1686866561
157,cadale,2.7603,46.3222,25.65,85,52,8.16,SO,1686866607
158,kapuskasing,49.4169,-82.4331,20.15,53,47,4.99,CA,1686866607
159,celestun,20.8667,-90.4,31.76,67,13,6.45,MX,1686866607
160,umatilla,45.5001,-118.5014,19.92,34,40,3.65,US,1686866607
161,huarmey,-10.0681,-78.1522,21.26,80,43,5.27,PE,1686866457
162,solok,-0.7918,100.6593,20.26,92,100,0.9,ID,1686866608
163,cururupu,-1.8283,-44.8683,24.17,92,5,1.51,BR,1686866608
164,conceicao da barra,-18.5933,-39.7322,22.34,92,2,2.12,BR,1686866608
165,zhezqazghan,47.7833,67.7667,20.37,29,48,4.65,KZ,1686866507
166,lethem,3.3803,-59.7968,26.64,79,40,2.09,GY,1686866608
167,portland,45.5234,-122.6762,25.88,48,0,4.63,US,1686866531
168,iskateley,67.6803,53.1512,2.53,79,87,10.34,RU,1686866608
169,zhanjiang,21.2815,110.3427,26.18,91,99,2.6,CN,1686866608
170,mount gambier,-37.8333,140.7667,10.19,70,0,5.95,AU,1686866608
171,berdigestyakh,62.0989,126.6992,9.37,94,100,3.68,RU,1686866609
172,udachny,66.4167,112.4,9.5,70,59,9.72,RU,1686866418
173,waingapu,-9.6567,120.2641,22.57,85,30,3.8,ID,1686866609
174,kailua-kona,19.6406,-155.9956,26.98,90,75,5.14,US,1686866609
175,ixtapa,20.7,-105.2,30.68,70,40,6.69,MX,1686866609
176,masvingo,-20.0637,30.8277,13.6,18,19,1.31,ZW,1686866609
177,magadan,59.5667,150.8,9.74,93,100,2.35,RU,1686866349
178,togitsu,32.8333,129.85,22.77,78,57,0.57,JP,1686866610
179,muriti,-1.9833,32.9167,23.2,69,48,2.12,TZ,1686866610
180,petra,30.3222,35.4793,17.77,52,0,1.62,JO,1686866445
181,san patricio,28.017,-97.5169,35.05,54,2,8.68,US,1686866610
182,kapa'a,22.0752,-159.319,26.99,82,75,8.23,US,1686866610
183,nemuro,43.3236,145.575,14.0,95,98,3.38,JP,1686866610
184,oxford,51.7522,-1.256,20.66,61,0,4.12,GB,1686866391
185,sinan,34.8262,126.1086,19.27,82,0,1.1,KR,1686866610
186,utrik,11.2278,169.8474,27.52,81,100,9.48,MH,1686866610
187,thompson,55.7435,-97.8558,25.55,22,32,5.77,CA,1686866611
188,saint-joseph,-21.3667,55.6167,24.21,79,71,3.77,RE,1686866611
189,embi,48.8264,58.1442,21.6,29,22,3.42,KZ,1686866611
190,kavaratti,10.5669,72.642,29.42,71,31,6.91,IN,1686866611
191,robbio,45.2906,8.5911,21.03,82,91,1.65,IT,1686866611
192,barah,13.7,30.3667,30.81,45,86,4.49,SD,1686866611
193,haiku-pauwela,20.9219,-156.3051,31.01,43,40,9.26,US,1686866611
194,tofol,5.3248,163.0078,27.76,81,100,7.09,FM,1686866611
195,longyearbyen,78.2186,15.6401,3.91,65,75,4.63,SJ,1686866612
196,keflavik,64.0049,-22.5624,11.24,93,100,6.17,IS,1686866581
197,kone,-21.0595,164.8658,22.65,65,43,2.16,NC,1686866612
198,sitka,57.0531,-135.33,11.94,62,100,7.2,US,1686866612
199,argo,37.6333,22.7333,22.1,71,4,0.84,GR,1686866612
200,sarupathar,26.1984,93.8094,23.0,99,99,0.83,IN,1686866612
201,guangyuan,32.442,105.823,18.68,95,100,0.67,CN,1686866613
202,the pas,53.8251,-101.2541,22.95,53,88,6.0,CA,1686866613
203,oyama,36.3,139.8,22.55,83,36,2.36,JP,1686866613
204,okuta,9.2167,3.1833,22.32,96,72,3.41,NG,1686866613
205,murghob,38.1702,73.9667,7.7,58,7,0.9,TJ,1686866613
206,koungheul,13.9833,-14.8,31.63,57,99,6.19,SN,1686866613
207,crane,31.3974,-102.3501,38.62,7,32,8.21,US,1686866613
208,eyl,7.9803,49.8164,25.68,78,87,9.06,SO,1686866614
209,san clemente del tuyu,-36.3569,-56.7235,8.32,71,50,3.88,AR,1686866614
210,kamianets-podilskyi,48.6667,26.5667,17.88,90,98,1.12,UA,1686866347
211,rawala kot,33.8578,73.7604,16.96,81,99,0.32,PK,1686866614
212,hadibu,12.65,54.0333,27.72,80,100,7.92,YE,1686866614
213,urzhum,57.1141,49.9996,12.4,83,7,1.78,RU,1686866614
214,jamestown,42.097,-79.2353,20.57,61,87,1.34,US,1686866445
215,puerto ayora,-0.7393,-90.3518,28.98,84,39,2.24,EC,1686866615
216,antonio enes,-16.2325,39.9086,20.41,81,19,2.93,MZ,1686866615
217,sai buri,6.7013,101.6168,25.08,88,85,1.85,TH,1686866615
218,kamyshevatskaya,46.4132,37.9563,21.06,79,4,3.79,RU,1686866615
219,mar del plata,-38.0023,-57.5575,11.16,65,0,3.6,AR,1686866396
220,nar'yan-mar,67.6713,53.087,2.55,80,84,10.39,RU,1686866615
221,chibougamau,49.9168,-74.3659,16.87,85,92,2.35,CA,1686866615
222,lovington,32.944,-103.3485,37.47,8,0,1.79,US,1686866616
223,takoradi,4.8845,-1.7554,25.61,78,56,3.6,GH,1686866319
224,syktyvkar,61.6764,50.8099,13.85,58,0,3.0,RU,1686866573
225,kingston,17.997,-76.7936,32.36,63,48,2.24,JM,1686866616
226,mabaruma,8.2,-59.7833,22.95,99,100,2.84,GY,1686866616
227,madang,-5.2246,145.7966,24.93,91,100,1.57,PG,1686866570
228,port douglas,-16.4833,145.4667,22.93,79,79,2.58,AU,1686866616
229,luderitz,-26.6481,15.1594,14.04,88,0,5.02,NA,1686866423
230,jawf al maqbabah,13.8378,45.8349,30.59,39,100,1.29,YE,1686866616
231,manda,-10.4667,34.5833,21.14,60,7,2.83,TZ,1686866617
232,debre werk',10.6667,38.1667,15.7,72,100,0.84,ET,1686866617
233,acarau,-2.8856,-40.12,26.01,81,3,6.46,BR,1686866617
234,berezovyy,51.6667,135.7,15.62,71,3,0.95,RU,1686866617
235,tolanaro,-25.0319,46.9987,19.65,42,0,1.47,MG,1686866617
236,sao jose da coroa grande,-8.8978,-35.1478,25.2,86,1,4.57,BR,1686866617
237,afaahiti,-17.75,-149.2833,28.93,81,86,9.43,PF,1686866618
238,bangolo,7.0069,-7.475,22.38,96,99,1.69,CI,1686866618
239,bandon,51.7469,-8.7425,15.77,94,47,1.67,IE,1686866618
240,mil'kovo,55.6078,37.7956,19.22,67,15,2.24,RU,1686866618
241,hithadhoo,-0.6,73.0833,28.79,73,97,6.11,MV,1686866618
242,strezhevoy,60.7333,77.5889,5.17,66,56,4.3,RU,1686866338
243,namtsy,62.7161,129.6658,14.33,71,96,3.63,RU,1686866618
244,xilin hot,43.9667,116.0333,21.09,41,51,0.51,CN,1686866619
245,altayskoye,51.9533,85.3325,8.9,88,2,2.6,RU,1686866622
246,hilo,19.7297,-155.09,27.93,76,75,4.63,US,1686866622
247,pacific grove,36.6177,-121.9166,22.12,85,100,4.63,US,1686866623
248,dudinka,69.4058,86.1778,5.9,87,100,3.33,RU,1686866623
249,castillos,-34.1667,-53.8333,10.75,88,87,2.6,UY,1686866623
250,teknaf,20.8624,92.3058,27.1,91,97,3.5,BD,1686866474
251,santa ana,33.7456,-117.8678,24.78,73,100,3.6,US,1686866551
252,sao francisco de paula,-29.4481,-50.5836,11.69,100,100,2.02,BR,1686866623
253,arraial do cabo,-22.9661,-42.0278,24.92,73,40,6.69,BR,1686866623
254,ghanzi,-21.5667,21.7833,12.84,19,0,3.68,BW,1686866623
255,alice springs,-23.7,133.8833,1.75,75,26,2.57,AU,1686866624
256,seven pagodas,12.6264,80.1722,31.03,77,56,6.64,IN,1686866624
257,mbanza-ngungu,-5.25,14.8667,20.32,84,3,1.21,CD,1686866625
258,richfield,44.8833,-93.283,23.52,45,40,6.17,US,1686866625
259,rundu,-17.9333,19.7667,12.93,16,0,1.66,NA,1686866625
260,ha'il,27.5219,41.6907,27.11,20,0,3.26,SA,1686866556
261,pandan,14.0453,124.1694,27.13,85,100,2.31,PH,1686866626
262,sur,22.5667,59.5289,32.33,52,100,3.28,OM,1686866483
263,katsuren-haebaru,26.3369,127.8719,24.21,60,75,0.0,JP,1686866626
264,guane,22.2025,-84.0875,31.86,57,5,4.86,CU,1686866626
265,vol'sk,52.0333,47.3833,17.89,91,100,3.53,RU,1686866345
266,coelho neto,-4.2567,-43.0128,27.17,66,66,0.41,BR,1686866626
267,al 'aziziyah,32.9058,45.0616,32.55,21,0,9.66,IQ,1686866576
268,boundiali,9.5217,-6.4869,22.82,93,89,1.53,CI,1686866627
269,revelstoke,50.9832,-118.2023,19.58,48,83,1.44,CA,1686866627
270,kizhinga,51.8462,109.9097,6.98,54,65,0.82,RU,1686866627
271,tura,25.5198,90.2201,22.53,98,75,2.96,IN,1686866627
272,glendive,47.1053,-104.7125,22.09,43,75,6.17,US,1686866627
273,urzhar,47.093,81.6294,12.64,47,29,3.86,KZ,1686866628
274,dumraon,25.55,84.15,34.98,33,8,4.18,IN,1686866628
275,clarion,41.2148,-79.3853,22.32,58,99,0.97,US,1686866628
276,carnarvon,-24.8667,113.6333,15.86,83,0,5.45,AU,1686866628
277,ra-ngae,6.2968,101.7284,23.51,95,95,1.75,TH,1686866628
278,flying fish cove,-10.4217,105.6791,25.82,83,75,5.66,CX,1686866629
279,gadzhiyevo,69.2551,33.3362,4.88,65,60,9.47,RU,1686866629
280,kudahuvadhoo,2.6708,72.8944,28.56,74,100,6.29,MV,1686866629
281,coahuayana de hidalgo,18.7,-103.6583,33.06,49,30,3.63,MX,1686866629
282,lazaro cardenas,17.9583,-102.2,31.15,62,78,5.79,MX,1686866630
283,salym,60.0625,71.4789,6.44,63,92,3.88,RU,1686866630
284,mount isa,-20.7333,139.5,7.87,53,15,2.06,AU,1686866630
285,tazacorte,28.629,-17.9293,22.54,95,75,5.14,ES,1686866440
286,motueka,-41.1333,173.0167,7.83,82,80,1.53,NZ,1686866534
287,kuanda,56.3161,116.0806,7.67,81,19,1.1,RU,1686866631
288,posto fiscal rolim de moura,-13.0833,-62.2667,20.02,66,3,1.28,BR,1686866631
289,coquimbo,-29.9533,-71.3436,14.85,72,0,1.03,CL,1686866631
290,alofi,-19.0595,-169.9187,23.94,88,100,4.12,NU,1686866631
291,jayapura,-2.5333,140.7,23.66,91,100,2.06,ID,1686866632
292,wriezen,52.7209,14.1343,15.27,93,70,1.79,DE,1686866417
293,haflong,25.1833,93.0333,22.46,98,100,1.56,IN,1686866632
294,luanda,-8.8368,13.2343,23.0,83,100,2.57,AO,1686866632
295,la'ie,21.6477,-157.9253,27.66,80,15,5.36,US,1686866632
296,okhotsk,59.3833,143.3,9.9,90,98,0.98,RU,1686866632
297,nenjiang,49.1833,125.2167,15.82,64,78,0.98,CN,1686866544
298,tombodu,8.1333,-10.6167,22.56,99,99,1.37,SL,1686866633
299,isiro,2.7739,27.616,19.7,95,100,0.49,CD,1686866633
300,pierre,44.3683,-100.351,33.51,40,0,5.14,US,1686866634
301,myrina,39.8797,25.0742,19.58,83,20,0.0,GR,1686866634
302,nikol'sk,53.7189,46.0712,15.44,81,100,3.21,RU,1686866634
303,fort bragg,35.139,-79.006,31.57,52,20,7.2,US,1686866634
304,ola,59.5833,151.2833,7.73,94,100,2.36,RU,1686866634
305,robertsganj,24.7,83.0667,31.28,36,2,2.77,IN,1686866634
306,winnemucca,40.973,-117.7357,23.03,12,0,5.66,US,1686866635
307,vrangel',42.7297,133.0839,16.12,92,92,3.85,RU,1686866628
308,shippensburg,40.0507,-77.5203,25.93,48,4,1.79,US,1686866636
309,puerto baquerizo moreno,-0.9,-89.6,26.55,74,75,4.63,EC,1686866636
310,tsiombe,-25.3,45.4833,17.13,73,0,2.93,MG,1686866636
311,vadso,70.0744,29.7487,5.49,75,75,4.12,NO,1686866637
312,pakala,13.4667,79.1167,29.13,50,84,2.59,IN,1686866637
313,urangan,-25.3,152.9,13.74,54,0,4.09,AU,1686866637
314,kiunga,-6.1219,141.2906,23.34,99,99,0.68,PG,1686866637
315,ascension,30.2169,-90.9001,35.71,64,75,4.63,US,1686866637
316,punta del este,-34.9667,-54.95,12.71,82,3,2.68,UY,1686866537
317,inhambane,-23.865,35.3833,19.51,37,0,3.01,MZ,1686866638
318,santiago,-33.4569,-70.6483,19.05,31,0,2.57,CL,1686866602
319,san antonio de pale,-1.4014,5.6325,25.33,80,100,4.96,GQ,1686866638
320,elko,41.0002,-115.5012,18.74,17,0,4.47,US,1686866638
321,pikeville,37.4793,-82.5188,28.33,58,40,2.06,US,1686866638
322,shahrak,34.1074,64.3052,14.27,26,0,1.62,AF,1686866638
323,malpe,13.35,74.7167,26.61,79,79,0.85,IN,1686866638
324,la passe,45.5549,-0.8967,18.32,87,71,2.68,FR,1686866638
325,port hedland,-20.3167,118.5667,17.03,36,88,0.0,AU,1686866639
326,derzhavinsk,51.1,66.3167,16.88,43,70,3.12,KZ,1686866639
327,kondagaon,19.6,81.6667,27.51,44,77,1.01,IN,1686866639
328,saquarema,-22.92,-42.5103,25.02,85,100,3.11,BR,1686866639
329,sinop,41.7711,34.8709,14.17,87,3,2.13,TR,1686866360
330,beruniy,41.6911,60.7525,23.98,33,0,3.09,UZ,1686866639
331,glace bay,46.1969,-59.957,15.61,94,100,3.6,CA,1686866639
332,at taj,24.2049,23.2857,32.3,15,0,2.22,LY,1686866639
333,dryden,49.7833,-92.7503,22.9,24,43,2.78,CA,1686866640
334,ust-nera,64.5667,143.2,16.0,53,100,1.35,RU,1686866640
335,belyy yar,53.6039,91.3903,6.94,93,0,0.0,RU,1686866640
336,nikolayevsk,50.0282,45.4595,20.0,74,100,0.87,RU,1686866640
337,wuhan,30.5833,114.2667,24.03,75,100,0.19,CN,1686866597
338,owatonna,44.0839,-93.226,23.41,50,0,4.12,US,1686866640
339,jacmel,18.2342,-72.5347,32.91,69,25,4.4,HT,1686866640
340,poso,-1.3959,120.7524,24.33,81,93,2.21,ID,1686866641
341,bryne,58.7354,5.6477,18.81,72,20,2.06,NO,1686866603
342,poronaysk,49.2167,143.1167,15.05,72,0,1.54,RU,1686866641
343,east london,-33.0153,27.9116,14.97,74,29,11.14,ZA,1686866636
344,hinatuan,8.3722,126.3342,24.65,94,100,4.26,PH,1686866642
345,sinabang,2.4803,96.3801,26.57,77,92,1.16,ID,1686866642
346,champerico,14.3,-91.9167,30.73,66,12,3.23,GT,1686866642
347,amga,60.8953,131.9608,14.47,69,95,3.29,RU,1686866642
348,kinmparana,12.8402,-4.9199,29.04,61,76,3.22,ML,1686866643
349,perechyn,48.7333,22.4667,17.3,82,100,2.23,UA,1686866553
350,tromso,69.6496,18.957,8.01,81,75,2.57,NO,1686866643
351,masterton,-40.9597,175.6575,8.35,77,0,1.84,NZ,1686866643
352,black river,18.0264,-77.8487,31.19,60,72,8.2,JM,1686866643
353,tlahualilo de zaragoza,26.1167,-103.45,39.95,6,98,4.26,MX,1686866645
354,kratie,12.4881,106.0188,25.14,95,100,0.62,KH,1686866645
355,merrill,45.1805,-89.6835,13.43,62,75,4.12,US,1686866646
356,midland,31.9974,-102.0779,40.59,7,0,6.69,US,1686866647
357,praia da vitoria,38.7333,-27.0667,18.76,81,19,3.57,PT,1686866647
358,dungarvan,52.0881,-7.6253,16.98,100,9,0.89,IE,1686866542
359,mossel bay,-34.1831,22.146,12.74,81,3,3.17,ZA,1686866648
360,bodo,67.28,14.405,9.97,96,100,3.6,NO,1686866564
361,trairi,-3.2778,-39.2689,26.32,75,32,4.68,BR,1686866648
362,kaihua,23.3687,104.28,19.25,97,99,1.56,CN,1686866649
363,aykhal,66.0,111.5,7.52,76,64,9.56,RU,1686866649
364,demidov,55.2706,31.515,13.89,74,26,0.42,RU,1686866649
365,bikenibeu village,1.3673,173.1241,30.98,74,40,4.12,KI,1686866649
366,leshan,29.5623,103.7639,19.1,95,100,0.14,CN,1686866502
367,tres pontas,-21.3667,-45.5125,17.76,89,93,3.71,BR,1686866649
368,balykshi,47.0667,51.8667,29.0,13,0,7.0,KZ,1686866650
369,ilha de mocambique,-15.0342,40.7358,24.81,65,27,1.31,MZ,1686866650
370,parvatipuram,18.7833,83.4333,29.18,61,100,1.09,IN,1686866650
371,pamandzi,-12.7967,45.2794,24.88,83,0,2.06,YT,1686866553
372,margate,51.3813,1.3862,15.94,81,12,1.79,GB,1686866652
373,yeniseysk,58.4497,92.1703,12.15,98,100,2.71,RU,1686866656
374,la jagua de ibirico,9.5623,-73.3341,28.9,85,100,0.29,CO,1686866680
375,al jawf,29.5,38.75,25.99,31,0,6.98,SA,1686866683
376,prado,-17.3411,-39.2208,23.08,89,4,2.3,BR,1686866684
377,kargasok,59.0556,80.8572,4.2,67,2,3.58,RU,1686866684
378,puerto deseado,-47.7503,-65.8938,4.37,51,1,1.69,AR,1686866542
379,visby,57.6409,18.296,16.01,72,75,3.09,SE,1686866654
380,bornu yassu,12.2774,12.5552,32.31,41,60,1.83,NG,1686866687
381,kayyerkan,69.3786,87.7439,5.72,100,100,3.82,RU,1686866687
382,st. john's,47.5649,-52.7093,9.94,87,73,1.34,CA,1686866688
383,arauco,-37.2463,-73.3175,11.67,88,45,4.12,CL,1686866690
384,tambo,-14.8,-73.9167,5.99,35,9,3.96,PE,1686866711
385,auki,-8.7676,160.7034,27.68,73,99,1.33,SB,1686866711
386,christchurch,-43.5333,172.6333,12.17,81,100,3.13,NZ,1686866712
387,yuzhno-kurilsk,44.0306,145.8556,12.53,98,100,3.22,RU,1686866712
388,akureyri,65.6835,-18.0878,18.37,51,98,1.25,IS,1686866462
389,hotan,37.0997,79.9269,25.04,25,97,3.65,CN,1686866712
390,turpan,42.9333,89.1667,31.65,22,100,1.34,CN,1686866712
391,filadelfia,39.9523,-75.1638,27.06,46,20,4.63,US,1686866561
392,gharavuti,37.5672,68.4469,24.36,25,0,2.11,TJ,1686866712
393,tual,-5.6667,132.75,27.0,76,95,8.78,ID,1686866713
394,perros-guirec,48.8145,-3.4396,16.47,91,5,1.96,FR,1686866490
395,dakhla,23.6848,-15.958,21.48,86,0,8.19,EH,1686866713
396,nadym,65.5333,72.5167,5.36,89,100,5.84,RU,1686866713
397,pimentel,-6.8367,-79.9342,26.16,61,0,7.2,PE,1686866713
398,krasnyy chikoy,50.3643,108.7512,7.48,80,100,0.83,RU,1686866713
399,pudasjarvi,65.3833,26.9167,11.56,65,1,2.74,FI,1686866713
400,petawawa,45.9001,-77.3328,20.99,61,99,2.79,CA,1686866713
401,essaouira,31.5125,-9.77,21.4,84,0,7.21,MA,1686866714
402,mount pearl,47.5166,-52.7813,9.48,87,84,1.34,CA,1686866522
403,qamdo,31.1667,97.2333,4.0,84,87,1.56,CN,1686866714
404,nouadhibou,20.931,-17.0347,22.99,68,0,7.72,MR,1686866714
405,spring creek,40.7266,-115.5859,18.55,24,0,4.76,US,1686866714
406,yibin,28.7667,104.6238,19.38,95,100,0.27,CN,1686866714
407,beira,-19.8436,34.8389,21.15,78,20,2.83,MZ,1686866708
408,solikamsk,59.6196,56.7729,7.82,72,0,2.44,RU,1686866539
409,barra de santo antonio,-9.4047,-35.5072,24.6,85,2,4.97,BR,1686866715
410,cangucu,-31.395,-52.6756,12.56,97,100,4.55,BR,1686866715
411,ellensburg,46.9965,-120.5479,26.25,28,0,2.06,US,1686866715
412,cativa,9.3606,-79.8436,24.79,86,100,2.11,PA,1686866715
413,burang,30.25,81.1667,4.3,81,68,0.93,CN,1686866715
414,taltal,-25.4,-70.4833,16.36,60,22,0.2,CL,1686866618
415,kashgar,39.4547,75.9797,23.77,20,0,3.04,CN,1686866715
416,kendari,-3.945,122.4989,23.11,96,94,1.18,ID,1686866457
417,dodge city,37.7528,-100.0171,27.08,57,48,2.68,US,1686866432
418,vila velha,-20.3297,-40.2925,23.3,88,18,1.33,BR,1686866427
419,mushabani,22.5167,86.45,32.93,39,99,1.87,IN,1686866716
420,jinxiang,27.4327,120.6062,23.66,86,100,1.64,CN,1686866559
421,brokopondo,4.75,-55.1667,25.25,84,100,4.8,SR,1686866716
422,katsuura,35.1333,140.3,22.07,88,23,4.15,JP,1686866673
423,highfields,-27.4518,151.9463,7.42,73,0,1.66,AU,1686866716
424,mareeba,-17.0,145.4333,18.58,93,67,1.26,AU,1686866716
425,palikir - national government center,6.9248,158.1611,25.47,89,100,2.06,FM,1686866716
426,pontes e lacerda,-15.2261,-59.3353,15.59,70,7,2.33,BR,1686866716
427,andreapol',56.6513,32.2664,13.8,64,10,1.01,RU,1686866717
428,tokar,18.4254,37.729,32.99,49,23,1.83,SD,1686866717
429,undurkhaan,47.3194,110.6556,12.9,77,98,8.67,MN,1686866717
430,klaksvik,62.2266,-6.589,10.51,92,88,3.82,FO,1686866711
431,taradale,-39.5333,176.85,7.79,78,16,1.79,NZ,1686866717
432,manokwari,-0.8667,134.0833,25.33,79,96,1.57,ID,1686866717
433,wad az zaki,14.4619,32.2065,32.76,39,34,4.16,SD,1686866717
434,jieshi,22.8134,115.8257,26.01,91,100,5.21,CN,1686866717
435,severodvinsk,64.5635,39.8302,7.79,74,12,3.75,RU,1686866710
436,akropong,5.9746,-0.0854,21.25,89,68,2.17,GH,1686866718
437,constantia,44.1833,28.65,17.61,78,100,3.24,RO,1686866496
438,valdivia,-39.8142,-73.2459,8.05,89,12,1.56,CL,1686866662
439,vorozhba,51.1733,34.2192,14.68,95,7,2.8,UA,1686866488
440,kamaishi,39.2667,141.8833,17.02,99,100,2.37,JP,1686866718
441,ipilan,8.8431,117.9033,26.22,81,100,0.95,PH,1686866718
442,anapa,44.8908,37.3239,20.2,88,75,2.0,RU,1686866514
443,kerikeri,-35.2268,173.9474,11.62,95,44,1.54,NZ,1686866718
444,kabalo,-6.05,26.9167,23.19,42,6,1.78,CD,1686866719
445,kapshagay,43.8833,77.0833,15.85,19,0,1.05,KZ,1686866719
446,plastun,44.7561,136.2939,21.53,59,3,0.8,RU,1686866443
447,la ligua,-32.4524,-71.2311,15.99,40,2,0.65,CL,1686866719
448,calvinia,-31.4707,19.776,5.39,95,86,1.67,ZA,1686866719
449,yigo village,13.5361,144.8886,28.74,77,40,6.69,GU,1686866719
450,ellon,57.3641,-2.0731,15.31,51,1,1.54,GB,1686866719
451,sao felix do xingu,-6.6447,-51.995,25.41,63,7,1.16,BR,1686866720
452,corinto,37.9407,22.9573,22.16,72,7,1.38,GR,1686866531
453,buchach,49.0625,25.388,15.3,92,100,1.52,UA,1686866720
454,piti village,13.4626,144.6933,29.61,75,0,6.69,GU,1686866720
455,uacu cungo,-11.3634,15.1208,15.43,42,2,0.7,AO,1686866720
456,holualoa,19.6228,-155.9522,24.91,90,75,5.14,US,1686866720
457,bubaque,11.2833,-15.8333,26.67,84,97,3.71,GW,1686866720
458,ziniare,12.5822,-1.2983,31.72,46,43,3.44,BF,1686866720
459,sumbe,-11.2061,13.8437,21.0,88,71,1.75,AO,1686866611
460,key west,24.5557,-81.7826,32.0,70,0,3.6,US,1686866699
461,weno,7.4515,151.8468,25.97,94,100,1.54,FM,1686866721
462,horta,38.5333,-28.6333,18.9,84,24,1.34,PT,1686866563
463,sandnessjoen,66.0217,12.6316,10.29,92,100,9.34,NO,1686866446
464,petoskey,45.3733,-84.9553,14.17,91,100,0.0,US,1686866721
465,klyuchi,52.2667,79.1667,16.66,47,88,2.82,RU,1686866721
466,tocopilla,-22.092,-70.1979,18.81,71,14,2.75,CL,1686866721
467,sebastopol,44.6,33.5333,17.78,61,6,2.05,UA,1686866461
468,labytnangi,66.6572,66.4183,2.71,78,26,5.32,RU,1686866427
469,murashi,59.3999,48.9615,10.53,71,0,2.38,RU,1686866721
470,newman,37.3138,-121.0208,31.7,10,100,1.95,US,1686866722
471,putnok,48.3,20.4333,14.79,81,100,0.9,HU,1686866660
472,kongolo,-5.3833,27.0,23.51,42,41,1.61,CD,1686866722
473,strathalbyn,-35.2667,138.9,12.14,67,0,7.76,AU,1686866722
474,businga,3.3333,20.8833,22.77,92,92,0.25,CD,1686866722
475,pionerskiy,54.9508,20.2275,13.19,86,12,2.17,RU,1686866722
476,sungai penuh,-2.0833,101.3833,17.66,88,100,0.27,ID,1686866722
477,kattivakkam,13.2167,80.3167,31.05,88,52,6.13,IN,1686866722
478,ondjiva,-17.0667,15.7333,13.11,21,0,2.04,AO,1686866723
479,turar ryskulov,42.5333,70.3333,18.93,36,3,3.33,KZ,1686866723
480,touros,-5.1989,-35.4608,27.32,79,2,6.88,BR,1686866456
481,kedrovyy,56.1667,91.8167,10.23,75,8,2.76,RU,1686866723
482,salinas,36.6777,-121.6555,24.99,77,75,5.66,US,1686866723
483,napili-honokowai,20.9708,-156.6705,31.64,78,6,6.73,US,1686866723
484,tutoia,-2.7619,-42.2744,26.12,83,34,3.67,BR,1686866723
485,palamas,39.4667,22.0833,19.9,84,98,0.65,GR,1686866723
486,paita,-5.0892,-81.1144,24.26,75,98,6.89,PE,1686866723
487,ouesso,1.6136,16.0517,21.72,96,65,0.98,CG,1686866724
488,badiyah,22.45,58.8,32.04,22,100,1.34,OM,1686866724
489,selfoss,63.9331,-20.9971,12.8,92,100,1.52,IS,1686866447
490,alakurtti,66.9672,30.3491,8.43,56,16,2.22,RU,1686866662
491,vanimo,-2.6741,141.3028,24.8,91,98,1.53,PG,1686866724
492,geraldton,-28.7667,114.6,16.23,67,75,3.6,AU,1686866724
493,port moresby,-9.4431,147.1797,24.96,87,92,5.08,PG,1686866516
494,saynshand,44.8824,110.1163,24.81,18,88,2.9,MN,1686866724
495,zeya,53.75,127.2667,14.36,58,99,2.28,RU,1686866724
496,taft,31.7471,54.2088,29.29,15,60,2.23,IR,1686866725
497,ciudad lazaro cardenas,17.9583,-102.2,31.15,62,78,5.79,MX,1686866532
498,jaisalmer,26.9147,70.9181,28.66,64,78,7.39,IN,1686866655
499,saryozek,44.3583,77.9753,10.52,22,0,2.37,KZ,1686866725
500,parit raja,1.8681,103.1124,26.67,92,79,0.58,MY,1686866725
501,nianzishan,47.5167,122.8833,16.82,67,100,1.31,CN,1686866725
502,igarka,67.4667,86.5833,5.55,73,41,2.08,RU,1686866566
503,khandyga,62.6667,135.6,16.88,62,8,1.18,RU,1686866725
504,sola,-13.8833,167.55,26.53,78,53,4.25,VU,1686866725
505,cooma,-36.2333,149.1333,3.06,92,2,1.06,AU,1686866725
506,salekhard,66.53,66.6019,3.04,73,14,7.5,RU,1686866726
507,hasaki,35.7333,140.8333,22.38,87,47,3.65,JP,1686866726
508,hammerfest,70.6634,23.6821,5.25,65,75,2.57,NO,1686866726
509,darnah,32.767,22.6367,24.96,64,60,7.12,LY,1686866726
510,koz'modem'yansk,56.3367,46.5711,13.21,80,54,1.6,RU,1686866726
511,howard springs,-12.497,131.047,20.95,51,91,3.12,AU,1686866726
512,itaituba,-4.2761,-55.9836,25.24,88,74,1.51,BR,1686866726
513,kelso,46.1468,-122.9084,23.81,57,0,3.09,US,1686866727
514,igrim,63.1906,64.4162,11.09,59,97,4.97,RU,1686866727
515,sao gabriel da cachoeira,-0.1303,-67.0892,22.42,80,94,1.26,BR,1686866727
516,umluj,25.0213,37.2685,28.61,59,2,4.04,SA,1686866696
517,"laikit, laikit ii (dimembe)",1.4792,124.9735,22.47,94,40,1.03,ID,1686866727
518,barakani,-12.1356,44.4317,25.16,71,87,1.17,KM,1686866727
519,axim,4.8699,-2.2405,25.68,75,90,3.3,GH,1686866727
520,dampit,-8.2116,112.7493,20.05,96,93,1.2,ID,1686866727
521,chokwe,-24.5333,32.9833,18.36,22,0,2.11,MZ,1686866728
522,richards bay,-28.783,32.0377,18.04,87,0,3.65,ZA,1686866515
523,alaghsas,17.0187,8.0168,34.8,22,95,2.21,NE,1686866728
524,lamar,33.6668,-95.5836,33.69,53,0,3.09,US,1686866728
525,murgud,16.4,74.2,23.52,89,28,3.14,IN,1686866728
526,la trinite,14.7376,-60.9629,29.03,58,20,8.23,MQ,1686866728
527,lompoc,34.6391,-120.4579,24.08,79,100,2.57,US,1686866728
528,ciudad satelite,19.5167,-99.25,31.28,24,0,3.42,MX,1686866728
529,zaozersk,69.4005,32.4476,4.71,63,78,8.6,RU,1686866729
530,loreto,22.2667,-101.9667,33.86,7,53,7.33,MX,1686866729
531,reyes,-14.3167,-67.3833,15.68,80,98,0.27,BO,1686866729
532,tangalle,6.024,80.7911,27.09,84,100,5.48,LK,1686866598
533,suva,-18.1416,178.4415,26.71,78,75,5.66,FJ,1686866728
534,kuqa,41.7278,82.9364,21.56,34,61,3.95,CN,1686866729
535,kentau,43.5206,68.5094,24.64,22,32,7.34,KZ,1686866729
536,shizunai-furukawacho,42.3339,142.3669,14.97,96,100,0.56,JP,1686866467
537,kochkor-ata,41.0389,72.4833,23.82,36,0,2.13,UZ,1686866729
538,natal,-5.795,-35.2094,25.36,88,75,1.03,BR,1686866700
539,i-n-salah,27.1935,2.4607,35.23,12,5,3.5,DZ,1686866730
540,karlskrona,56.1616,15.5866,15.25,79,100,3.31,SE,1686866520
541,nabire,-3.3667,135.4833,23.79,92,100,1.51,ID,1686866730
542,plettenberg bay,-34.0527,23.3716,12.55,86,35,3.7,ZA,1686866730
543,awjilah,29.1081,21.2869,25.16,62,5,6.45,LY,1686866730
544,altai,46.3722,96.2583,11.68,39,100,0.85,MN,1686866730
545,porto novo,6.4965,2.6036,24.26,94,100,2.94,BJ,1686866730
546,araruna,-6.5583,-35.7417,20.79,92,2,2.99,BR,1686866730
547,taulaga,-11.0553,-171.0883,28.59,70,78,6.79,AS,1686866731
548,enoch,37.7733,-113.0244,15.14,76,100,5.14,US,1686866731
549,hailar,49.2,119.7,17.12,65,86,4.58,CN,1686866731
550,lu-uk,5.9684,121.3122,25.31,82,69,0.74,PH,1686866731
551,sagua la grande,22.8067,-80.0756,32.55,60,49,4.62,CU,1686866622
552,humberto de campos,-2.5983,-43.4611,25.14,86,69,2.08,BR,1686866731
